  
[
    {
      "icao": "ENHV",
      "iata": "HVG",
      "name": "Honningsvåg Airport Valan",
      "aliases": ["Honningsvag Airport", "Valan Airport"],
      "city": "Honningsvåg",
      "region": "Finnmark",
      "country": "NO",
      "elevation_ft": "53",
      "latitude": "71.0098000000",
      "longitude": "25.9750003815",
      "timezone": "Europe/Oslo"
    },
    {
      "icao": "ENTC",
      "iata": "TOS",
      "name": "Tromsø Airport",
      "aliases": ["Tromso Airport"],
      "city": "Tromsø",
      "region": "Troms og Finnmark",
      "country": "NO",
      "elevation_ft": "31",
      "latitude": "69.6832962036",
      "longitude": "18.9188995361",
      "timezone": "Europe/Oslo"
    },
    {
      "icao": "ENBO",
      "iata": "BOO",
      "name": "Bodø Airport",
      "aliases": ["Bodo Airport"],
      "city": "Bodø",
      "region": "Nordland",
      "country": "NO",
      "elevation_ft": "42",
      "latitude": "67.269203186",
      "longitude": "14.3653001785",
      "timezone": "Europe/Oslo"
    },
    {
      "icao": "ENOV",
      "iata": "HOV",
      "name": "Ørsta-Volda Airport, Hovden",
      "aliases": ["Orsta Volda Airport", "Hovden Airport"],
      "city": "Ørsta",
      "region": "Møre og Romsdal",
      "country": "NO",
      "elevation_ft": "9",
      "latitude": "62.1794013977",
      "longitude": "6.0741000175",
      "timezone": "Europe/Oslo"
    },
    {
      "icao": "ENNA",
      "iata": "LKL",
      "name": "Lakselv Airport Banak",
      "aliases": ["Lakselv Airport", "Banak Airport"],
      "city": "Lakselv",
      "region": "Finnmark",
      "country": "NO",
      "elevation_ft": "37",
      "latitude": "70.0688018799",
      "longitude": "24.9734992981",
      "timezone": "Europe/Oslo"
    },
    {
      "icao": "ENRO",
      "iata": "RRS",
      "name": "Røros Airport",
      "aliases": ["Røros Airport", "Roros", "Roros Airport"],
      "city": "Røros",
      "region": "Trøndelag",
      "country": "NO",
      "elevation_ft": "2051",
      "latitude": "62.5783996582",
      "longitude": "11.342300415",
      "timezone": "Europe/Oslo"
    },
    {
      "icao": "ENFL",
      "iata": "FRO",
      "name": "Florø Airport",
      "aliases": ["Florø Airport", "Floro Airport", "Floro"],
      "city": "Florø",
      "region": "Vestland",
      "country": "NO",
      "elevation_ft": "37",
      "latitude": "61.5835990906",
      "longitude": "5.02472019196",
      "timezone": "Europe/Oslo"
    },
    {
      "icao": "ENOL",
      "iata": "OLA",
      "name": "Ørland Airport",
      "aliases": ["Ørland Airport", "Orland Airport"],
      "city": "Ørland",
      "region": "Trøndelag",
      "country": "NO",
      "elevation_ft": "28",
      "latitude": "63.6988983154",
      "longitude": "9.60400009155",
      "timezone": "Europe/Oslo"
    },
    {
      "icao": "ENMS",
      "iata": "MJF",
      "name": "Mosjøen Airport Kjærstad",
      "aliases": ["Mosjøen Airport", "Kjærstad Airport", "Mosjoen Airport", "Kjaerstad Airport"],
      "city": "Mosjøen",
      "region": "Nordland",
      "country": "NO",
      "elevation_ft": "237",
      "latitude": "65.783996582",
      "longitude": "13.2149000168",
      "timezone": "Europe/Oslo"
    },
    {
      "icao": "ENRS",
      "iata": "RET",
      "name": "Røst Airport",
      "aliases": ["Røst Airport", "Rost Airport"],
      "city": "Røst",
      "region": "Nordland",
      "country": "NO",
      "elevation_ft": "16",
      "latitude": "67.5278015137",
      "longitude": "12.1033000946",
      "timezone": "Europe/Oslo"
    },
    {
      "icao": "ENAN",
      "iata": "ANX",
      "name": "Andøya Airport Andenes",
      "aliases": ["Andøya Airport", "Andenes Airport", " Andoya Airport"],
      "city": "Andenes",
      "region": "Nordland",
      "country": "NO",
      "elevation_ft": "43",
      "latitude": "69.296440000",
      "longitude": "16.1304610000",
      "timezone": "Europe/Oslo"
    },
    {
      "icao": "ENBL",
      "iata": "FDE",
      "name": "Førde Airport Bringeland",
      "aliases": ["Førde Airport", "Bringeland Airport", "Forde Airport"],
      "city": "Førde",
      "region": "Vestland",
      "country": "NO",
      "elevation_ft": "989",
      "latitude": "61.39220047",
      "longitude": "5.763300419",
      "timezone": "Europe/Oslo"
    },
    {
      "icao": "ENFG",
      "iata": "VDB",
      "name": "Fagernes Airport Leirin",
      "aliases": ["Fagernes Airport", "Leirin Airport"],
      "city": "Fagernes",
      "region": "Innlandet",
      "country": "NO",
      "elevation_ft": "2693",
      "latitude": "61.0155982971",
      "longitude": "9.28806018829",
      "timezone": "Europe/Oslo"
    },
    {
      "icao": "ENTO",
      "iata": "TRF",
      "name": "Sandefjord Airport Torp",
      "aliases": ["Sandefjord Airport", "Torp Airport"],
      "city": "Sandefjord",
      "region": "Vestfold og Telemark",
      "country": "NO",
      "elevation_ft": "286",
      "latitude": "59.1866989136",
      "longitude": "10.258600235",
      "timezone": "Europe/Oslo"
    },
    {
      "icao": "EKOD",
      "iata": "ODE",
      "name": "Hans Christian Andersen Airport",
      "aliases": ["Hans Christian Andersen Airport", "Odense Airport", "Hans Christian Airport", "Andersen Airport"],
      "city": "Odense",
      "region": "Syddanmark",
      "country": "DK",
      "elevation_ft": "56",
      "latitude": "55.4766998291",
      "longitude": "10.3309001923",
      "timezone": "Europe/Copenhagen"
    },
    {
      "icao": "EKKA",
      "iata": "KRP",
      "name": "Midtjyllands Airport",
      "aliases": ["Midtjyllands Airport", "Karup Airport"],
      "city": "Karup",
      "region": "Midtjylland",
      "country": "DK",
      "elevation_ft": "170",
      "latitude": "56.2975006104",
      "longitude": "9.12462997437",
      "timezone": "Europe/Copenhagen"
    },
    {
      "icao": "EKSB",
      "iata": "SGD",
      "name": "Sønderborg Airport",
      "aliases": ["Sønderborg Airport", "Sonderborg Airport"],
      "city": "Sønderborg",
      "region": "Syddanmark",
      "country": "DK",
      "elevation_ft": "150",
      "latitude": "54.9644012451",
      "longitude": "9.79172992706",
      "timezone": "Europe/Copenhagen"
    },
    {
      "icao": "EKLS",
      "iata": "BYR",
      "name": "Læsø Airport",
      "aliases": ["Laeso Airport"],
      "city": "Læsø",
      "region": "Nordjylland",
      "country": "DK",
      "elevation_ft": "17",
      "latitude": "57.2771987915",
      "longitude": "11.0001001358",
      "timezone": "Europe/Copenhagen"
    },
    {
      "icao": "EKTD",
      "iata": "EKTD",
      "name": "Tønder Airport",
      "aliases": ["Tønder Airport", "Tonder Airport"],
      "city": "Tønder",
      "region": "Syddanmark",
      "country": "DK",
      "elevation_ft": "59",
      "latitude": "54.9296989441",
      "longitude": "8.84000968933",
      "timezone": "Europe/Copenhagen"
    },
    {
      "icao": "EHAM",
      "iata": "AMS",
      "name": "Amsterdam Airport Schiphol",
      "aliases": ["Amsterdam Airport Schiphol", "Schiphol Airport"],
      "city": "Schiphol",
      "region": "North Holland",
      "country": "NL",
      "elevation_ft": "11",
      "latitude": "52.30860137939453",
      "longitude": "4.763889789581299",
      "timezone": "Europe/Amsterdam"
    },
    {
      "icao": "EHTW",
      "iata": "ENS",
      "name": "Enschede Airport Twente",
      "aliases": ["Enschede Airport Twente", "Twente Airport"],
      "city": "Enschede",
      "region": "Overijssel",
      "country": "NL",
      "elevation_ft": "114",
      "latitude": "52.275833",
      "longitude": "6.889167",
      "timezone": "Europe/Amsterdam"
    },
    {
      "icao": "TNCE",
      "iata": "EUX",
      "name": "F.D. Roosevelt Airport",
      "aliases": ["F.D. Roosevelt Airport", "Sint Eustatius Airport", "F D Roosevelt Airport"],
      "city": "Oranjestad",
      "region": "Caribbean Netherlands",
      "country": "NL",
      "elevation_ft": "130",
      "latitude": "17.4965000153",
      "longitude": "-62.9794006348",
      "timezone": "America/Kralendijk"
    },
    {
      "icao": "TNCB",
      "iata": "BON",
      "name": "Flamingo International Airport",
      "aliases": ["Flamingo International Airport", "Bonaire International Airport"],
      "city": "Bonaire",
      "region": "Caribbean Netherlands",
      "country": "NL",
      "elevation_ft": "20",
      "latitude": "12.1309995651",
      "longitude": "-68.2685012817",
      "timezone": "America/Kralendijk"
    },
    {
      "icao": "TNCS",
      "iata": "SAB",
      "name": "Juancho E. Yrausquin Airport",
      "aliases": ["Juancho E. Yrausquin Airport", "Saba Airport", "Juancho E Yrausquin Airport"],
      "city": "Hell's Gate",
      "region": "Caribbean Netherlands",
      "country": "NL",
      "elevation_ft": "60",
      "latitude": "17.6450004578",
      "longitude": "-63.2200012207",
      "timezone": "America/Kralendijk"
    },
    {
      "icao": "LPMA",
      "iata": "FNC",
      "name": "Madeira Airport",
      "aliases": ["Madeira Airport", "Funchal Airport"],
      "city": "Funchal",
      "region": "Madeira",
      "country": "PT",
      "elevation_ft": "192",
      "latitude": "32.697898864746094",
      "longitude": "-16.774499893188477",
      "timezone": "Atlantic/Madeira"
    },
    {
      "icao": "LPPT",
      "iata": "LIS",
      "name": "Lisbon Airport",
      "aliases": ["Lisbon Airport", "Humberto Delgado Airport"],
      "city": "Lisbon",
      "region": "Lisbon",
      "country": "PT",
      "elevation_ft": "374",
      "latitude": "38.78129959106445",
      "longitude": "-9.135919570922852",
      "timezone": "Europe/Lisbon"
    },
    {
      "icao": "LPPR",
      "iata": "OPO",
      "name": "Porto Airport",
      "aliases": ["Porto Airport", "Francisco Sá Carneiro Airport", "Francisco Sa Carneiro Airport"],
      "city": "Porto",
      "region": "Porto",
      "country": "PT",
      "elevation_ft": "228",
      "latitude": "41.24810028076172",
      "longitude": "-8.681389808654785",
      "timezone": "Europe/Lisbon"
    },
    {
      "icao": "LPPD",
      "iata": "PDL",
      "name": "João Paulo II Airport",
      "aliases": ["João Paulo II Airport", "Nordela Airport", "Joao Paulo Airport"],
      "city": "Ponta Delgada",
      "region": "Azores",
      "country": "PT",
      "elevation_ft": "259",
      "latitude": "37.7411994934082",
      "longitude": "-25.697900772094727",
      "timezone": "Atlantic/Azores"
    },
    {
      "icao": "LPPM",
      "iata": "PRM",
      "name": "Portimão Airport",
      "aliases": ["Portimão Airport", "Portimao Airport"],
      "city": "Portimão",
      "region": "Algarve",
      "country": "PT",
      "elevation_ft": "6",
      "latitude": "37.1493",
      "longitude": "-8.58396",
      "timezone": "Europe/Lisbon"
    },
    {
      "icao": "LPSC",
      "iata": "none",
      "name": "Madeirã Airport",
      "aliases": ["Madeira Santa Cruz Airport"],
      "city": "Madeirã",
      "region": "Madeira",
      "country": "PT",
      "elevation_ft": "156",
      "latitude": "32.6942",
      "longitude": "-16.7781",
      "timezone": "Atlantic/Madeira"
    },
    {
      "icao": "LPST",
      "iata": "SIE",
      "name": "Sines Airport",
      "city": "Sines",
      "region": "Setúbal",
      "country": "PT",
      "elevation_ft": "16",
      "latitude": "37.9608",
      "longitude": "-8.86215",
      "timezone": "Europe/Lisbon"
    },
    {
      "icao": "LPVR",
      "iata": "VRL",
      "name": "Vila Real Airport",
      "city": "Vila Real",
      "region": "Vila Real",
      "country": "PT",
      "elevation_ft": "1,800",
      "latitude": "41.2743",
      "longitude": "-7.7172",
      "timezone": "Europe/Lisbon"
    },
    {
      "icao": "LEST",
      "iata": "SCQ",
      "name": "Santiago de Compostela Airport",
      "aliases": ["Santiago de Compostela Airport"],
      "city": "Santiago de Compostela",
      "region": "Galicia",
      "country": "ES",
      "elevation_ft": "1213",
      "latitude": "42.89630126953125",
      "longitude": "-8.415140151977539",
      "timezone": "Europe/Madrid"
    },
    {
      "icao": "LPEV",
      "iata": "",
      "name": "Évora Airport",
      "aliases": ["Évora Airport", "Evora Airport"],
      "city": "Évora",
      "region": "Alentejo",
      "country": "PT",
      "elevation_ft": "620",
      "latitude": "38.536202",
      "longitude": "-7.88799",
      "timezone": "Europe/Lisbon"
    },
    {
      "icao": "LPCS",
      "iata": "CAT",
      "name": "Cascais Airport",
      "aliases": ["Cascais Airport", "Tires Airport"],
      "city": "Cascais",
      "region": "Lisbon",
      "country": "PT",
      "elevation_ft": "374",
      "latitude": "38.725",
      "longitude": "-9.35523",
      "timezone": "Europe/Lisbon"
    },
    {
      "icao": "LPBG",
      "iata": "BGC",
      "name": "Bragança Airport",
      "aliases": ["Braganca Airport"],
      "city": "Bragança",
      "region": "Bragança",
      "country": "PT",
      "elevation_ft": "2,346",
      "latitude": "41.8578",
      "longitude": "-6.70713",
      "timezone": "Europe/Lisbon"
    },
    {
      "icao": "LPMR",
      "iata": "",
      "name": "Monte Real Airport",
      "city": "Monte Real",
      "region": "Leiria",
      "country": "PT",
      "elevation_ft": "187",
      "latitude": "39.831699",
      "longitude": "-8.88722",
      "timezone": "Europe/Lisbon"
    },
    {
      "icao": "LPOV",
      "iata": "OVR",
      "name": "Ovar Airport",
      "city": "Ovar",
      "region": "Aveiro",
      "country": "PT",
      "elevation_ft": "98",
      "latitude": "40.91529846191406",
      "longitude": "-8.645833015441895",
      "timezone": "Europe/Lisbon"
    },
    {
      "icao": "LPVZ",
      "iata": "VSE",
      "name": "Viseu Airport",
      "city": "Viseu",
      "region": "Viseu",
      "country": "PT",
      "elevation_ft": "1,927",
      "latitude": "40.725498",
      "longitude": "-7.88899",
      "timezone": "Europe/Lisbon"
    },
    {
      "icao": "LPSI",
      "iata": "none",
      "name": "Sintra Airport",
      "city": "Sintra",
      "region": "Lisbon",
      "country": "PT",
      "elevation_ft": "1,493",
      "latitude": "38.8269",
      "longitude": "-9.38194",
      "timezone": "Europe/Lisbon"
    },
    {
        "icao": "EFKK",
        "iata": "KOK",
        "name": "Kokkola Pietarsaari Airport",
        "city": "Kokkola",
        "region": "Central Ostrobothnia",
        "country": "FI",
        "elevation_ft": "84",
        "latitude": "63.7211990356",
        "longitude": "23.1431007385",
        "timezone": "Europe/Helsinki"
    },
    {
        "icao": "EFKG",
        "iata": "",
        "name": "Genböle Airport",
        "aliases": ["Genböle Airport"],
        "city": "Genböle",
        "region": "Uusimaa",
        "country": "FI",
        "elevation_ft": "23",
        "latitude": "60.086899",
        "longitude": "22.5219",
        "timezone": "Europe/Helsinki"
    },
    {
        "icao": "EFKT",
        "iata": "KTT",
        "name": "Kittilä Airport",
        "city": "Kittilä",
        "region": "Lapland",
        "country": "FI",
        "elevation_ft": "644",
        "latitude": "67.7010002136",
        "longitude": "24.8467998505",
        "timezone": "Europe/Helsinki"
    },
    {
        "icao": "EFSA",
        "iata": "SVL",
        "name": "Savonlinna Airport",
        "city": "Savonlinna",
        "region": "Southern Savonia",
        "country": "FI",
        "elevation_ft": "311",
        "latitude": "61.9430999756",
        "longitude": "28.9451007843",
        "timezone": "Europe/Helsinki"
    },
    {
        "icao": "EFJY",
        "iata": "JYV",
        "name": "Jyväskylä Airport",
        "aliases": ["Jyväskylä Airport"],
        "city": "Jyväskylä",
        "region": "Central Finland",
        "country": "FI",
        "elevation_ft": "459",
        "latitude": "62.3995018005",
        "longitude": "25.6783008575",
        "timezone": "Europe/Helsinki"
    },
    {
        "icao": "EFSI",
        "iata": "SJY",
        "name": "Seinäjoki Airport",
        "aliases": ["Seinäjoki Airport"],
        "city": "Seinäjoki",
        "region": "Southern Ostrobothnia",
        "country": "FI",
        "elevation_ft": "259",
        "latitude": "62.6921005249",
        "longitude": "22.8321990967",
        "timezone": "Europe/Helsinki"
    },
    {
        "icao": "EFVR",
        "iata": "VRK",
        "name": "Varkaus Airport",
        "city": "Varkaus",
        "region": "Northern Savonia",
        "country": "FI",
        "elevation_ft": "329",
        "latitude": "62.1711006165",
        "longitude": "27.8686008453",
        "timezone": "Europe/Helsinki"
    },
    {
        "icao": "ESPA",
        "iata": "LLA",
        "name": "Luleå Airport",
        "aliases": ["Lulea Airport"],
        "city": "Luleå",
        "region": "Norrbotten",
        "country": "SE",
        "elevation_ft": "65",
        "latitude": "65.543800354",
        "longitude": "22.1219997406",
        "timezone": "Europe/Stockholm"
    },
    {
        "icao": "ESSP",
        "iata": "NRK",
        "name": "Norrköping Airport",
        "aliases": ["Norrkoping Airport"],
        "city": "Norrköping",
        "region": "Östergötland",
        "country": "SE",
        "elevation_ft": "32",
        "latitude": "58.5862998962",
        "longitude": "16.2506008148",
        "timezone": "Europe/Stockholm"
    },
    {
        "icao": "ESNZ",
        "iata": "OSD",
        "name": "Åre Östersund Airport",
        "aliases": ["Are Ostersund Airport"],
        "city": "Östersund",
        "region": "Jämtland",
        "country": "SE",
        "elevation_ft": "1,232",
        "latitude": "63.1944007874",
        "longitude": "14.5003004074",
        "timezone": "Europe/Stockholm"
    },
    {
        "icao": "ESSL",
        "iata": "LPI",
        "name": "Linköping City Airport",
        "aliases": ["Linkoping Airport"],
        "city": "Linköping",
        "region": "Östergötland",
        "country": "SE",
        "elevation_ft": "308",
        "latitude": "58.4062004089",
        "longitude": "15.6805000305",
        "timezone": "Europe/Stockholm"
    },
    {
        "icao": "ESNS",
        "iata": "SFT",
        "name": "Skellefteå Airport",
        "aliases": ["Skelleftea Airport"],
        "city": "Skellefteå",
        "region": "Västerbotten",
        "country": "SE",
        "elevation_ft": "157",
        "latitude": "64.6248016357",
        "longitude": "21.0769004822",
        "timezone": "Europe/Stockholm"
    },
    {
        "icao": "ESTA",
        "iata": "AGH",
        "name": "Ängelholm-Helsingborg Airport",
        "city": "Ängelholm",
        "region": "Skåne",
        "country": "SE",
        "elevation_ft": "68",
        "latitude": "56.2961006165",
        "longitude": "12.8471002579",
        "timezone": "Europe/Stockholm"
    },
    {
        "icao": "ESNO",
        "iata": "OER",
        "name": "Örnsköldsvik Airport",
        "city": "Örnsköldsvik",
        "region": "Vasternorrland",
        "country": "SE",
        "elevation_ft": "354",
        "latitude": "63.4082984924",
        "longitude": "18.9901008606",
        "timezone": "Europe/Stockholm"
    },
    {
        "icao": "ESNG",
        "iata": "GEV",
        "name": "Gällivare Airport",
        "city": "Gällivare",
        "region": "Norrbotten",
        "country": "SE",
        "elevation_ft": "1,010",
        "latitude": "67.1324005127",
        "longitude": "20.8145999908",
        "timezone": "Europe/Stockholm"
    },
    {
        "icao": "ESOE",
        "iata": "ORB",
        "name": "Orebro Airport",
        "city": "Orebro",
        "region": "Orebro",
        "country": "SE",
        "elevation_ft": "188",
        "latitude": "59.2237014771",
        "longitude": "15.0371999741",
        "timezone": "Europe/Stockholm"
    },
    {
        "icao": "ESNV",
        "iata": "VHM",
        "name": "Vilhelmina Airport",
        "aliases": ["South Lapland Airport", "Vilhelmina Airport"],
        "city": "Vilhelmina",
        "region": "Västerbotten",
        "country": "SE",
        "elevation_ft": "1,099",
        "latitude": "64.5791015625",
        "longitude": "16.8335990906",
        "timezone": "Europe/Stockholm"
    },
    {
        "icao": "ESKM",
        "iata": "MXX",
        "name": "Mora-Siljan Airport",
        "city": "Dalarna",
        "region": "Dalarna",
        "country": "SE",
        "elevation_ft": "664",
        "latitude": "60.957901001",
        "longitude": "14.5114002228",
        "timezone": "Europe/Stockholm"
    },
    {
        "icao": "ESND",
        "iata": "EVG",
        "name": "Härjedalen Sveg Airport",
        "city": "Sveg",
        "region": "Härjedalen",
        "country": "SE",
        "elevation_ft": "1,197",
        "latitude": "62.0477981567",
        "longitude": "14.4229001999",
        "timezone": "Europe/Stockholm"
    },
    {
        "icao": "ESGT",
        "iata": "THN",
        "name": "Trollhättan-Vänersborg Airport",
        "city": "Trollhättan",
        "region": "Vastra Gotaland",
        "country": "SE",
        "elevation_ft": "137",
        "latitude": "58.3180999756",
        "longitude": "12.345000267",
        "timezone": "Europe/Stockholm"
    },
    {
        "icao": "ESNH",
        "iata": "HUV",
        "name": "Hudiksvall Airport",
        "city": "Hudiksvall",
        "region": "Gävleborg",
        "country": "SE",
        "elevation_ft": "39",
        "latitude": "61.7681007385",
        "longitude": "17.0806999207",
        "timezone": "Europe/Stockholm"
    },
    {
        "icao": "ESOW",
        "iata": "VST",
        "name": "Stockholm Västerås Airport",
        "city": "Västerås",
        "region": "Västmanland",
        "country": "SE",
        "elevation_ft": "21",
        "latitude": "59.5894012451",
        "longitude": "16.633600235",
        "timezone": "Europe/Stockholm"
    },
    {
        "icao": "ESGP",
        "iata": "GSE",
        "name": "Säve Airport",
        "city": "Gothenburg",
        "region": "Västra Götaland",
        "country": "SE",
        "elevation_ft": "59",
        "latitude": "57.7747001648",
        "longitude": "11.8704004288",
        "timezone": "Europe/Stockholm"
    },
    {
        "icao": "ESVK",
        "iata": "",
        "name": "Västervik Airport",
        "city": "Västervik",
        "region": "Kalmar",
        "country": "SE",
        "elevation_ft": "16",
        "latitude": "57.6753005981",
        "longitude": "16.6406002045",
        "timezone": "Europe/Stockholm"
    },
    {
        "icao": "ESSK",
        "iata": "GVX",
        "name": "Gävle Sandviken Airport",
        "city": "Gävle",
        "region": "Gavleborg",
        "country": "SE",
        "elevation_ft": "140",
        "latitude": "60.5932998657",
        "longitude": "16.9514007568",
        "timezone": "Europe/Stockholm"
    },
    {
      "icao": "LEBL",
      "iata": "BCN",
      "name": "Josep Tarradellas Barcelona El Prat Airport",
      "aliases": ["Barcelona-El Prat Airport", "El Prat Airport"],
      "city": "Barcelona",
      "region": "Catalonia",
      "country": "ES",
      "elevation_ft": "12",
      "latitude": "41.29710006713867",
      "longitude": "2.0784599781036377",
      "timezone": "Europe/Madrid"
    },
    {
      "icao": "GCRR",
      "iata": "ACE",
      "name": "Lanzarote Airport",
      "aliases": ["Lanzarote Airport", "Arrecife Airport"],
      "city": "Arrecife",
      "region": "Canary Islands",
      "country": "ES",
      "elevation_ft": "47",
      "latitude": "28.945499420166016",
      "longitude": "-13.605199813842773",
      "timezone": "Atlantic/Canary"
    },
    {
      "icao": "LEMD",
      "iata": "MAD",
      "name": "Adolfo Suárez Madrid Barajas Airport",
      "aliases": ["Madrid Barajas Airport", "Barajas Airport", "Adolfo Suarez Madrid Barajas Airport"],
      "city": "Madrid",
      "region": "Madrid",
      "country": "ES",
      "elevation_ft": "2000",
      "latitude": "40.471926",
      "longitude": "-3.56264",
      "timezone": "Europe/Madrid"
    },
    {
      "icao": "LEMG",
      "iata": "AGP",
      "name": "Málaga-Costa del Sol Airport",
      "aliases": ["Málaga Airport", "Costa del Sol Airport", "Malaga Airport"],
      "city": "Málaga",
      "region": "Andalusia",
      "country": "ES",
      "elevation_ft": "52",
      "latitude": "36.67490005493164",
      "longitude": "-4.499110221862793",
      "timezone": "Europe/Madrid"
    },
    {
      "icao": "GCFV",
      "iata": "FUE",
      "name": "Fuerteventura Airport",
      "aliases": ["Fuerteventura Airport", "El Matorral Airport"],
      "city": "Puerto del Rosario",
      "region": "Canary Islands",
      "country": "ES",
      "elevation_ft": "82",
      "latitude": "28.452699661254883",
      "longitude": "-13.863800048828125",
      "timezone": "Atlantic/Canary"
    },
    {
      "icao": "GCLA",
      "iata": "SPC",
      "name": "La Palma Airport",
      "aliases": ["La Palma Airport", "Cruz de la Palma Airport"],
      "city": "Santa Cruz de la Palma",
      "region": "Canary Islands",
      "country": "ES",
      "elevation_ft": "107",
      "latitude": "28.62649917602539",
      "longitude": "-17.755599975585938",
      "timezone": "Atlantic/Canary"
    },
    {
      "icao": "GEML",
      "iata": "MLN",
      "name": "Melilla Airport",
      "aliases": ["Melilla Airport"],
      "city": "Melilla",
      "region": "Melilla",
      "country": "ES",
      "elevation_ft": "156",
      "latitude": "35.27980041503906",
      "longitude": "-2.9562599658966064",
      "timezone": "Africa/Ceuta"
    },
    {
      "icao": "GCXO",
      "iata": "TFN",
      "name": "Tenerife North Airport",
      "aliases": ["Tenerife North Airport", "Los Rodeos Airport"],
      "city": "Tenerife Santa Cruz",
      "region": "Canary Islands",
      "country": "ES",
      "elevation_ft": "2077",
      "latitude": "28.48270034790039",
      "longitude": "-16.34149932861328",
      "timezone": "Atlantic/Canary"
    },
    {
      "icao": "GCHI",
      "iata": "VDE",
      "name": "El Hierro Airport",
      "aliases": ["El Hierro Airport"],
      "city": "Villa de Valverde",
      "region": "Canary Islands",
      "country": "ES",
      "elevation_ft": "95",
      "latitude": "27.8148",
      "longitude": "-17.8871",
      "timezone": "Atlantic/Canary"
    },
    {
      "icao": "LESU",
      "iata": "LEU",
      "name": "Andorra La Seu d'Urgell Airport",
      "aliases": ["Andorra La Seu d'Urgell Airport", "Andorra La Seu d Urgell Airport"],
      "city": "Andorra",
      "region": "Catalonia",
      "country": "ES",
      "elevation_ft": "3,779",
      "latitude": "42.3386",
      "longitude": "1.40917",
      "timezone": "Europe/Madrid"
    },
    {
      "icao": "LEZL",
      "iata": "SVQ",
      "name": "Seville Airport",
      "aliases": ["Seville Airport"],
      "city": "Seville",
      "region": "Andalusia",
      "country": "ES",
      "elevation_ft": "111",
      "latitude": "37.41899871826172",
      "longitude": "-5.893110275268555",
      "timezone": "Europe/Madrid"
    },
    {
      "icao": "LEGR",
      "iata": "GRX",
      "name": "Federico Garcia Lorca Granada Jaen Airport",
      "aliases": ["Granada-Jaén Airport", "Granda Jaen Airport"],
      "city": "Granada",
      "region": "Andalusia",
      "country": "ES",
      "elevation_ft": "1,867",
      "latitude": "37.18870162963867",
      "longitude": "-3.777359962463379",
      "timezone": "Europe/Madrid"
    },
    {
      "icao": "LEXJ",
      "iata": "SDR",
      "name": "Santander Airport",
      "city": "Santander",
      "region": "Cantabria",
      "country": "ES",
      "elevation_ft": "16",
      "latitude": "43.427101135253906",
      "longitude": "-3.82000994682312",
      "timezone": "Europe/Madrid"
    },
    {
      "icao": "LEZG",
      "iata": "ZAZ",
      "name": "Zaragoza Airport",
      "city": "Zaragoza",
      "region": "Aragon",
      "country": "ES",
      "elevation_ft": "863",
      "latitude": "41.66619873046875",
      "longitude": "-1.0415500402450562",
      "timezone": "Europe/Madrid"
    },
    {
      "icao": "LEVT",
      "iata": "VIT",
      "name": "Vitoria Airport",
      "city": "Vitoria Gasteiz",
      "region": "Basque Country",
      "country": "ES",
      "elevation_ft": "1686",
      "latitude": "42.8828010559082",
      "longitude": "-2.7244699001312256",
      "timezone": "Europe/Madrid"
    },
    {
      "icao": "EPPO",
      "iata": "POZ",
      "name": "Poznań-Ławica Henryk Wieniawski Airport",
      "aliases": ["Poznan Airport", "Lawica Airport"],
      "city": "Poznań",
      "region": "Greater Poland",
      "country": "PL",
      "elevation_ft": "308",
      "latitude": "52.42100143432617",
      "longitude": "16.8262996673584",
      "timezone": "Europe/Warsaw"
    },
    {
      "icao": "EPGD",
      "iata": "GDN",
      "name": "Gdańsk Lech Wałęsa Airport",
      "aliases": ["Gdańsk Airport", "Gdansk Airport"],
      "city": "Gdańsk",
      "region": "Pomerania",
      "country": "PL",
      "elevation_ft": "489",
      "latitude": "54.377601623535156",
      "longitude": "18.46619987487793",
      "timezone": "Europe/Warsaw"
    },
    {
      "icao": "EPWR",
      "iata": "WRO",
      "name": "Copernicus Airport Wroclaw",
      "aliases": ["Wroclaw Airport"],
      "city": "Wroclaw",
      "region": "Lower Silesia",
      "country": "PL",
      "elevation_ft": "404",
      "latitude": "51.102699279785156",
      "longitude": "16.885799407958984",
      "timezone": "Europe/Warsaw"
    },
    {
      "icao": "EPSC",
      "iata": "SZZ",
      "name": "Solidarity Szczecin Goleniów Airport",
      "aliases": ["Szczecin Airport", "Goleniow Airport"],
      "city": "Szczecin",
      "region": "West Pomerania",
      "country": "PL",
      "elevation_ft": "154",
      "latitude": "53.58470153808594",
      "longitude": "14.902199745178223",
      "timezone": "Europe/Warsaw"
    },
    {
      "icao": "EPLL",
      "iata": "LCJ",
      "name": "Łódź Władysław Reymont Airport",
      "aliases": ["Łódź Airport"],
      "city": "Łódź",
      "region": "Łódź",
      "country": "PL",
      "elevation_ft": "604",
      "latitude": "51.721900939941406",
      "longitude": "19.398099899291992",
      "timezone": "Europe/Warsaw"
    },
    {
      "icao": "EPTO",
      "iata": "none",
      "name": "Torun Airport",
      "aliases": ["Torun Airport"],
      "city": "Torun",
      "region": "Kuyavian-Pomeranian",
      "country": "PL",
      "elevation_ft": "230",
      "latitude": "53.028900146484375",
      "longitude": "18.60569953918457",
      "timezone": "Europe/Warsaw"
    },
    {
      "icao": "EBBR",
      "iata": "BRU",
      "name": "Brussels Airport",
      "aliases": ["Brussels Airport", "Zaventem Airport"],
      "city": "Brussels",
      "region": "Flemish Brabant",
      "country": "BE",
      "elevation_ft": "184",
      "latitude": "50.9014015198",
      "longitude": "4.4844398499",
      "timezone": "Europe/Brussels"
    },
    {
      "icao": "EBOS",
      "iata": "OST",
      "name": "Ostend Bruges International Airport",
      "aliases": ["Ostend Airport", "Bruges Airport"],
      "city": "Ostend",
      "region": "West Flanders",
      "country": "BE",
      "elevation_ft": "13",
      "latitude": "51.1988983154",
      "longitude": "2.8622200489",
      "timezone": "Europe/Brussels"
    },
    {
      "icao": "EBKT",
      "iata": "KJK",
      "name": "Kortrijk Wevelgem International Airport",
      "aliases": ["Flanders International Airport", "Kortrijk Airport"],
      "city": "Kortrijk",
      "region": "West Flanders",
      "country": "BE",
      "elevation_ft": "64",
      "latitude": "50.817199707",
      "longitude": "3.2047200203",
      "timezone": "Europe/Brussels"
    },
    {
      "icao": "LHBP",
      "iata": "BUD",
      "name": "Budapest Ferenc Liszt International Airport",
      "aliases": ["Budapest Airport"],
      "city": "Budapest",
      "region": "Pest County",
      "country": "HU",
      "elevation_ft": "495",
      "latitude": "47.42976",
      "longitude": "19.261093",
      "timezone": "Europe/Budapest"
    },
    {
      "icao": "EDVE",
      "iata": "BWE",
      "name": "Braunschweig Wolfsburg Airport",
      "aliases": ["Braunschweig Airport", "Wolfsburg Airport", "Flughafen Airport"],
      "city": "Braunschweig",
      "region": "Lower Saxony",
      "country": "DE",
      "elevation_ft": "295",
      "latitude": "52.319199",
      "longitude": "10.5561",
      "timezone": "Europe/Berlin"
    },
    {
      "icao": "EDLV",
      "iata": "NRN",
      "name": "Weeze Airport",
      "aliases": ["Niederrhein Airport", "Weeze Airport"],
      "city": "Weeze",
      "region": "North Rhine-Westphalia",
      "country": "DE",
      "elevation_ft": "106",
      "latitude": "51.60240173339844",
      "longitude": "6.142169952392578",
      "timezone": "Europe/Berlin"
    },
    {
      "icao": "EDOP",
      "iata": "SZW",
      "name": "Schwerin Parchim International Airport",
      "aliases": ["Parchim International Airport", "Schwerin Airport"],
      "city": "Schwerin",
      "region": "Mecklenburg-Vorpommern",
      "country": "DE",
      "elevation_ft": "167",
      "latitude": "53.426998138427734",
      "longitude": "11.78339958190918",
      "timezone": "Europe/Berlin"
    },
    {
      "icao": "EDDN",
      "iata": "NUE",
      "name": "Nuremberg Airport",
      "aliases": ["Nürnberg Airport", "Nurnberg Airport"],
      "city": "Nuremberg",
      "region": "Bavaria",
      "country": "DE",
      "elevation_ft": "1046",
      "latitude": "49.49869918823242",
      "longitude": "11.066900253295898",
      "timezone": "Europe/Berlin"
    },
    {
      "icao": "LDSB",
      "iata": "BWK",
      "name": "Brač Airport",
      "aliases": ["Brač Airport", "Brac Airport"],
      "city": "Gornji Humac",
      "region": "Split-Dalmatia",
      "country": "HR",
      "elevation_ft": "1776",
      "latitude": "43.285599",
      "longitude": "16.67934",
      "timezone": "Europe/Zagreb"
    },
    {
      "icao": "LDPL",
      "iata": "PUY",
      "name": "Pula Airport",
      "city": "Valtura",
      "region": "Istria",
      "country": "HR",
      "elevation_ft": "274",
      "latitude": "44.89350128173828",
      "longitude": "13.922200202941895",
      "timezone": "Europe/Zagreb"
    },
    {
      "icao": "LDZD",
      "iata": "ZAD",
      "name": "Zadar Airport",
      "city": "Zadar",
      "region": "Zadar",
      "country": "HR",
      "elevation_ft": "289",
      "latitude": "44.09426",
      "longitude": "15.35408",
      "timezone": "Europe/Zagreb"
    },
    {
      "icao": "LBRS",
      "iata": "ROU",
      "name": "Ruse Airport",
      "aliases": ["Rousse Airport"],
      "city": "Ruse",
      "region": "Ruse",
      "country": "BG",
      "elevation_ft": "148",
      "latitude": "43.6945",
      "longitude": "26.06999",
      "timezone": "Europe/Sofia"
    },
    {
      "icao": "LGAV",
      "iata": "ATH",
      "name": "Athens International Airport",
      "aliases": ["Athens Airport", "Eleftherios Airport"],
      "city": "Athens",
      "region": "Attica",
      "country": "GR",
      "elevation_ft": "308",
      "latitude": "37.9364",
      "longitude": "23.9445",
      "timezone": "Europe/Athens"
    },
    {
      "icao": "LGRP",
      "iata": "RHO",
      "name": "Rhodes International Airport",
      "aliases": ["Rhodes Airport", "Diagoras Airport"],
      "city": "Rhodes",
      "region": "South Aegean",
      "country": "GR",
      "elevation_ft": "22",
      "latitude": "36.40384",
      "longitude": "28.08876",
      "timezone": "Europe/Athens"
    },
    {
      "icao": "LGZA",
      "iata": "ZTH",
      "name": "Zakynthos International Airport",
      "aliases": ["Zakynthos Airport", "Dionysios Solomos Airport"],
      "city": "Zakynthos",
      "region": "Ionian Islands",
      "country": "GR",
      "elevation_ft": "15",
      "latitude": "37.75261",
      "longitude": "20.88450",
      "timezone": "Europe/Athens"
    },
    {
      "icao": "LGKF",
      "iata": "EFL",
      "name": "Kefalonia International Airport",
      "aliases": ["Kefalonia Airport", "Anna Pollatou Airport"],
      "city": "Kefalonia",
      "region": "Ionian Islands",
      "country": "GR",
      "elevation_ft": "59",
      "latitude": "38.12076",
      "longitude": "20.50077",
      "timezone": "Europe/Athens"
    },
    {
      "icao": "LGKR",
      "iata": "CFU",
      "name": "Corfu International Airport",
      "aliases": ["Corfu Airport", "Ioannis Kapodistrias Airport"],
      "city": "Corfu",
      "region": "Ionian Islands",
      "country": "GR",
      "elevation_ft": "6",
      "latitude": "39.60673",
      "longitude": "19.91195",
      "timezone": "Europe/Athens"
    },
    {
      "icao": "LGSY",
      "iata": "SKU",
      "name": "Skyros Island National Airport",
      "aliases": ["Skyros Airport"],
      "city": "Skyros",
      "region": "Central Greece",
      "country": "GR",
      "elevation_ft": "44",
      "latitude": "38.96180",
      "longitude": "24.48650",
      "timezone": "Europe/Athens"
    },
    {
      "icao": "LGLM",
      "iata": "LXS",
      "name": "Lemnos International Airport",
      "aliases": ["Lemnos Airport", "Hephaestus Airport"],
      "city": "Lemnos",
      "region": "North Aegean",
      "country": "GR",
      "elevation_ft": "14",
      "latitude": "39.92334",
      "longitude": "25.23926",
      "timezone": "Europe/Athens"
    },
    {
      "icao": "LGAL",
      "iata": "AXD",
      "name": "Alexandroupoli Airport",
      "aliases": ["Democritus Airport"],
      "city": "Alexandroupoli",
      "region": "East Macedonia and Thrace",
      "country": "GR",
      "elevation_ft": "24",
      "latitude": "40.85499",
      "longitude": "25.94874",
      "timezone": "Europe/Athens"
    },
    {
      "icao": "LGMK",
      "iata": "JMK",
      "name": "Mykonos Island National Airport",
      "aliases": ["Mykonos Airport"],
      "city": "Mykonos",
      "region": "South Aegean",
      "country": "GR",
      "elevation_ft": "405",
      "latitude": "37.43482",
      "longitude": "25.34763",
      "timezone": "Europe/Athens"
    },
    {
      "icao": "LGKO",
      "iata": "KGS",
      "name": "Kos Island International Airport",
      "aliases": ["Kos Airport", "Hippocrates Airport"],
      "city": "Kos",
      "region": "South Aegean",
      "country": "GR",
      "elevation_ft": "412",
      "latitude": "36.79836",
      "longitude": "27.08793",
      "timezone": "Europe/Athens"
    },
    {
      "icao": "LGKJ",
      "iata": "KZS",
      "name": "Kastellorizo Island Public Airport",
      "aliases": ["Kastellorizo Airport"],
      "city": "Megisti",
      "region": "South Aegean",
      "country": "GR",
      "elevation_ft": "474",
      "latitude": "36.1417007446",
      "longitude": "29.5764007568",
      "timezone": "Europe/Athens"
    },
    {
      "icao": "LIPE",
      "iata": "BLQ",
      "name": "Bologna Guglielmo Marconi Airport",
      "aliases": ["Bologna Airport"],
      "city": "Bologna",
      "region": "Emilia-Romagna",
      "country": "IT",
      "elevation_ft": "123",
      "latitude": "44.53729",
      "longitude": "11.28211",
      "timezone": "Europe/Rome"
    },
    {
      "icao": "LIMC",
      "iata": "MXP",
      "name": "Milan Malpensa Airport",
      "aliases": ["Malpensa Airport"],
      "city": "Milan",
      "region": "Lombardy",
      "country": "IT",
      "elevation_ft": "768",
      "latitude": "45.63170",
      "longitude": "8.72630",
      "timezone": "Europe/Rome"
    },
    {
      "icao": "LIPZ",
      "iata": "VCE",
      "name": "Venice Marco Polo Airport",
      "aliases": ["Marco Polo Airport"],
      "city": "Venice",
      "region": "Veneto",
      "country": "IT",
      "elevation_ft": "7",
      "latitude": "45.50481",
      "longitude": "12.34496",
      "timezone": "Europe/Rome"
    },
    {
      "icao": "LIRN",
      "iata": "NAP",
      "name": "Naples International Airport",
      "aliases": ["Naples Airport", "Capodichino Airport"],
      "city": "Naples",
      "region": "Campania",
      "country": "IT",
      "elevation_ft": "294",
      "latitude": "40.88101",
      "longitude": "14.28371",
      "timezone": "Europe/Rome"
    },
    {
      "icao": "LIRA",
      "iata": "CIA",
      "name": "Rome Ciampino G B Pastine International Airport",
      "aliases": ["Ciampino Airport"],
      "city": "Rome",
      "region": "Lazio",
      "country": "IT",
      "elevation_ft": "427",
      "latitude": "41.80093",
      "longitude": "12.59151",
      "timezone": "Europe/Rome"
    },
    {
      "icao": "LIRQ",
      "iata": "FLR",
      "name": "Florence Airport",
      "aliases": ["Amerigo Vespucci Airport", "Peretola Airport", "Florence Airport"],
      "city": "Florence",
      "region": "Tuscany",
      "country": "IT",
      "elevation_ft": "142",
      "latitude": "43.80499",
      "longitude": "11.20034",
      "timezone": "Europe/Rome"
    },
    {
      "icao": "LIBP",
      "iata": "PSR",
      "name": "Abruzzo Airport",
      "aliases": ["Pescara International Airport", "Abruzzo Airport"],
      "city": "Pescara",
      "region": "Abruzzo",
      "country": "IT",
      "elevation_ft": "48",
      "latitude": "42.431702",
      "longitude": "14.1811",
      "timezone": "Europe/Rome"
    },
    {
      "icao": "LIRZ",
      "iata": "PEG",
      "name": "Perugia San Francesco d'Assisi Umbria International Airport",
      "aliases": ["Perugia Airport"],
      "city": "Perugia",
      "region": "Umbria",
      "country": "IT",
      "elevation_ft": "693",
      "latitude": "43.09588",
      "longitude": "12.50945",
      "timezone": "Europe/Rome"
    },
    {
      "icao": "LIMG",
      "iata": "ALL",
      "name": "Riviera Airport",
      "aliases": ["Albenga Airport"],
      "city": "Albenga",
      "region": "Liguria",
      "country": "IT",
      "elevation_ft": "149",
      "latitude": "44.04916",
      "longitude": "8.12655",
      "timezone": "Europe/Rome"
    },
    {
      "icao": "LFPG",
      "iata": "CDG",
      "name": "Paris Charles de Gaulle Airport",
      "aliases": ["Roissy Airport"],
      "city": "Paris",
      "region": "Île-de-France",
      "country": "FR",
      "elevation_ft": "392",
      "latitude": "49.00583",
      "longitude": "2.56877",
      "timezone": "Europe/Paris"
    },
    {
      "icao": "LFBE",
      "iata": "EGC",
      "name": "Bergerac Dordogne Périgord Airport",
      "aliases": ["Bergerac Airport"],
      "city": "Bergerac",
      "region": "Nouvelle-Aquitaine",
      "country": "FR",
      "elevation_ft": "171",
      "latitude": "44.82365",
      "longitude": "0.51570",
      "timezone": "Europe/Paris"
    },
    {
      "icao": "LFPO",
      "iata": "ORY",
      "name": "Paris Orly Airport",
      "aliases": ["Orly Airport"],
      "city": "Paris",
      "region": "Île-de-France",
      "country": "FR",
      "elevation_ft": "291",
      "latitude": "48.72616",
      "longitude": "2.36916",
      "timezone": "Europe/Paris"
    },
    {
      "icao": "LFMH",
      "iata": "EBU",
      "name": "Saint-Étienne-Loire Airport",
      "aliases": ["Saint Etienne Loire Airport"],
      "city": "Saint-Étienne",
      "region": "Auvergne-Rhône-Alpes",
      "country": "FR",
      "elevation_ft": "1325",
      "latitude": "45.53860",
      "longitude": "4.29588",
      "timezone": "Europe/Paris"
    },
    {
      "icao": "LFOT",
      "iata": "TUF",
      "name": "Tours Val de Loire Airport",
      "aliases": ["Tours Airport"],
      "city": "Tours",
      "region": "Centre-Val de Loire",
      "country": "FR",
      "elevation_ft": "357",
      "latitude": "47.42587",
      "longitude": "0.71912",
      "timezone": "Europe/Paris"
    },
    {
      "icao": "LFLB",
      "iata": "CMF",
      "name": "Chambéry Airport",
      "aliases": ["Chambery Savoie Airport"],
      "city": "Chambéry",
      "region": "Auvergne-Rhône-Alpes",
      "country": "FR",
      "elevation_ft": "779",
      "latitude": "45.63789",
      "longitude": "5.88358",
      "timezone": "Europe/Paris"
    },
    {
      "icao": "LFMU",
      "iata": "BZR",
      "name": "Béziers Cap d'Agde Airport",
      "aliases": ["Beziers Airport"],
      "city": "Béziers",
      "region": "Occitanie",
      "country": "FR",
      "elevation_ft": "56",
      "latitude": "43.32082",
      "longitude": "3.35374",
      "timezone": "Europe/Paris"
    },
    {
      "icao": "LFMV",
      "iata": "AVN",
      "name": "Avignon Provence Airport",
      "aliases": ["Avignon Airport"],
      "city": "Avignon",
      "region": "Provence-Alpes-Côte d'Azur",
      "country": "FR",
      "elevation_ft": "124",
      "latitude": "43.90713",
      "longitude": "4.90193",
      "timezone": "Europe/Paris"
    },
    {
      "icao": "LFLS",
      "iata": "GNB",
      "name": "Grenoble Alpes Isère Airport",
      "aliases": ["Grenoble Airport"],
      "city": "Grenoble",
      "region": "Auvergne-Rhône-Alpes",
      "country": "FR",
      "elevation_ft": "1302",
      "latitude": "45.36221",
      "longitude": "5.33109",
      "timezone": "Europe/Paris"
    },
    {
      "icao": "LFRG",
      "iata": "DOL",
      "name": "Deauville Normandie Airport",
      "aliases": ["Saint Gatien Airport", "Deauville Airport", "Normandie Airport"],
      "city": "Deauville",
      "region": "Normandy",
      "country": "FR",
      "elevation_ft": "479",
      "latitude": "49.36496",
      "longitude": "0.15561",
      "timezone": "Europe/Paris"
    },
    {
      "icao": "LFTW",
      "iata": "FNI",
      "name": "Nîmes Alès Camargue Cévennes Airport",
      "aliases": ["Nimes Airport"],
      "city": "Nîmes",
      "region": "Occitanie",
      "country": "FR",
      "elevation_ft": "309",
      "latitude": "43.75907",
      "longitude": "4.41899",
      "timezone": "Europe/Paris"
    },
    {
      "icao": "EGBB",
      "iata": "BHX",
      "name": "Birmingham International Airport",
      "aliases": ["Birmingham Airport"],
      "city": "Birmingham",
      "region": "West Midlands",
      "country": "GB",
      "elevation_ft": "327",
      "latitude": "52.45195",
      "longitude": "-1.73363",
      "timezone": "Europe/London"
    },
    {
      "icao": "EGGD",
      "iata": "BRS",
      "name": "Bristol International Airport",
      "aliases": ["Bristol Airport"],
      "city": "Bristol",
      "region": "South West England",
      "country": "GB",
      "elevation_ft": "622",
      "latitude": "51.38531",
      "longitude": "-2.71108",
      "timezone": "Europe/London"
    },
    {
      "icao": "EGTE",
      "iata": "EXT",
      "name": "Exeter International Airport",
      "aliases": ["Exeter Airport"],
      "city": "Exeter",
      "region": "South West England",
      "country": "GB",
      "elevation_ft": "102",
      "latitude": "50.73133",
      "longitude": "-3.41652",
      "timezone": "Europe/London"
    },
    {
      "icao": "EGNV",
      "iata": "MME",
      "name": "Teesside International Airport",
      "aliases": ["Durham Tees Valley Airport"],
      "city": "Darlington",
      "region": "North East England",
      "country": "GB",
      "elevation_ft": "120",
      "latitude": "54.51188",
      "longitude": "-1.43228",
      "timezone": "Europe/London"
    },
    {
      "icao": "EGHC",
      "iata": "LEQ",
      "name": "Land's End Airport",
      "aliases": ["St Just Airport"],
      "city": "Kelynack",
      "region": "South West England",
      "country": "GB",
      "elevation_ft": "401",
      "latitude": "50.10228",
      "longitude": "-5.66874",
      "timezone": "Europe/London"
    },
    {
      "icao": "EGHE",
      "iata": "ISC",
      "name": "St Mary's Airport",
      "city": "Hugh Town",
      "region": "South West England",
      "country": "GB",
      "elevation_ft": "116",
      "latitude": "49.91308",
      "longitude": "-6.29284",
      "timezone": "Europe/London"
    },
    {
      "icao": "EGPC",
      "iata": "WIC",
      "name": "Wick John O'Groats Airport",
      "aliases": ["Wick Airport"],
      "city": "Wick",
      "region": "Scotland",
      "country": "GB",
      "elevation_ft": "126",
      "latitude": "58.4589",
      "longitude": "-3.09306",
      "timezone": "Europe/London"
    },
    {
      "icao": "EGTK",
      "iata": "OXF",
      "name": "Oxford Airport",
      "aliases": ["Kidlington Airport"],
      "city": "Oxford",
      "region": "South East England",
      "country": "GB",
      "elevation_ft": "270",
      "latitude": "51.83393",
      "longitude": "-1.31786",
      "timezone": "Europe/London"
    },
    {
      "icao": "EIKY",
      "iata": "KIR",
      "name": "Kerry Airport",
      "aliases": ["Kerry Airport", "Farranfore Airport"],
      "city": "Farranfore",
      "region": "Munster",
      "country": "IE",
      "elevation_ft": "112",
      "latitude": "52.18096",
      "longitude": "-9.53714",
      "timezone": "Europe/Dublin"
    },
    {
      "icao": "LCPH",
      "iata": "PFO",
      "name": "Pafos International Airport",
      "aliases": ["Paphos Airport"],
      "city": "Paphos",
      "region": "Paphos District",
      "country": "CY",
      "elevation_ft": "41",
      "latitude": "34.71148",
      "longitude": "32.48435",
      "timezone": "Asia/Nicosia"
    },
    {
      "icao": "LMML",
      "iata": "MLA",
      "name": "Malta International Airport",
      "aliases": ["Luqa Airport", "Malta Airport"],
      "city": "Malta",
      "region": "South Eastern Region",
      "country": "MT",
      "elevation_ft": "300",
      "latitude": "35.84853",
      "longitude": "14.49426",
      "timezone": "Europe/Malta"
    },
    {
      "icao": "LTFM",
      "iata": "IST",
      "name": "İstanbul Airport",
      "city": "İstanbul",
      "region": "Istanbul",
      "country": "TR",
      "elevation_ft": "325",
      "latitude": "41.275333",
      "longitude": "28.752",
      "timezone": "Europe/Istanbul"
    },
    {
    "icao": "LTBW",
    "iata": "",
    "name": "İstanbul Hezarfen Airfield",
    "city": "İstanbul",
    "region": "İstanbul",
    "country": "TR",
    "elevation_ft": "57",
    "latitude": "41.1035995483",
    "longitude": "28.547700882",
    "timezone": "Europe/Istanbul"
  }
  ]
  
  
  
  
                
                                               
  
  
       
  

    
  
        
          

  
                            
  
  

  
                                  
          

      
    
                              
